id,classe ,tipo,endereco,bairro,lat,lon,QUAD
1,POLICIA MILITAR,BATALHAO DA POLICIA,AV AFRANIO PEIXOTO  390,BUTANTA,-23.567232,-46.7091409,"(4, 31)"
2,POLICIA MILITAR,ACADEMIA DE POLICIA,AV AGUA FRIA 1923,AGUA FRIA,-23.4723139,-46.6182287,"(5, 32)"
3,POLICIA MILITAR,BATALHAO DA POLICIA,AV ANGELICA 1647,SANTA CECILIA,-23.5470121,-46.6580658,"(4, 32)"
4,POLICIA MILITAR,BATALHAO DA POLICIA,AV CARLOS OBERHUBER  397,VILA SAO JOSE,-23.7417364,-46.70915780000001,"(2, 31)"
5,POLICIA MILITAR,BATALHAO DA POLICIA,AV CORIFEU DE AZEVEDO MARQUES  4082,RIO PEQUENO,-23.5619338,-46.7466739,"(4, 31)"
6,POLICIA MILITAR,DIRETORIA DE SISTEMAS,AV CRUZEIRO DO SUL 260,CANINDE,-23.5292486,-46.6252329,"(4, 32)"
7,POLICIA MILITAR,BATALHAO DA POLICIA,AV DAVID DOMINGUES FERREIRA 02,ITAQUERA,-23.5352211,-46.4537193,"(4, 34)"
8,POLICIA MILITAR,BATALHAO DA POLICIA,AV DOS IMARES 488,INDIANOPOLIS,-23.6134946,-46.66515889999999,"(3, 32)"
9,POLICIA MILITAR,BATALHAO DA POLICIA,AV DOS METALURGICOS 150,CIDADE TIRADENTES,-23.5850571,-46.4093893,"(4, 35)"
10,POLICIA MILITAR,BATALHAO DA POLICIA,AV DR ENEAS CARVALHO DE AGUIAR 560,CERQUEIRA CESAR,-23.5556315,-46.6722056,"(4, 32)"
11,POLICIA MILITAR,BATALHAO DA POLICIA,AV DR FRANCISCO DE PAULA VICENTE DE AZEVEDO 777,PARQUE CONTINENTAL,-23.5415746,-46.7601106,"(4, 31)"
12,POLICIA MILITAR,BATALHAO DA POLICIA,AV DR JOSE ARTUR NOVA 917,PARQUE PAULISTANO,-23.485549,-46.4372446,"(5, 34)"
13,POLICIA MILITAR,BATALHAO DA POLICIA,AV INCONFIDENCIA MINEIRA 688,VILA RICA,-23.5793692,-46.5174278,"(4, 34)"
14,POLICIA MILITAR,BATALHAO DA POLICIA,AV IV CENTENARIO 1450,JD LUZITANIA,-23.5951042,-46.6654729,"(3, 32)"
15,POLICIA MILITAR,BATALHAO DA POLICIA,AV JACU PESSEGO 2708,FAZENDA NOSSA SRA DO CARMO,-23.5800733,-46.442922,"(4, 34)"
16,POLICIA MILITAR,BATALHAO DA POLICIA,AV LINO DE ALMEIDA PIRES 358,VILA GUARANI,-23.641986,-46.6334855,"(3, 32)"
17,POLICIA MILITAR,BATALHAO DA POLICIA,AV MIGUEL ESTEFANO 3900,AGUA FUNDA,-23.639592,-46.627284,"(3, 32)"
18,POLICIA MILITAR,CASA MILITAR,AV MORUMBI 4500,MORUMBI,-23.6019187,-46.71283880000001,"(3, 31)"
19,POLICIA MILITAR,COMANDO REGIONAL,AV NOVA CANTAREIRA  3659,TUCURUVI,-23.4687868,-46.6169629,"(5, 32)"
20,POLICIA MILITAR,BATALHAO DA POLICIA,AV ONZE DE JUNHO 87,VILA CLEMENTINO,-23.6020727,-46.6375182,"(3, 32)"
21,POLICIA MILITAR,BATALHAO DA POLICIA,AV OURO VERDE DE MINAS 271,JD IV CENTENARIO,-23.5877673,-46.50293260000001,"(3, 34)"
22,POLICIA MILITAR,ASSESSORIA DE POLICIA,AV PEDRO ALVARES CABRAL 201,MOEMA,-23.5805079,-46.657702,"(4, 32)"
23,POLICIA MILITAR,BATALHAO DA POLICIA,AV PROF FONSECA RODRIGUES 1655,ALTO DE PINHEIROS,-23.5443756,-46.7233607,"(4, 31)"
24,POLICIA MILITAR,BATALHAO DA POLICIA,AV PROF LUIS INACIO DE ANHAIA MELLO  8301,VILA TOLSTOI,-23.6022879,-46.5213287,"(3, 33)"
25,POLICIA MILITAR,BATALHAO DA POLICIA,AV PROFA SYLLA MATTOS 535,JD SANTA CRUZ,-23.6404748,-46.5988949,"(3, 33)"
26,POLICIA MILITAR,BATALHAO DA POLICIA,AV RAGUEB CHOHFI 830,SAO MATEUS,-23.6058536,-46.4706972,"(3, 34)"
27,POLICIA MILITAR,BATALHAO DA POLICIA,AV RAIMUNDO PEREIRA DE MAGALHAES 3301,JD SAO RICARDO,-23.4975448,-46.7268765,"(5, 31)"
28,POLICIA MILITAR,BATALHAO DA POLICIA,AV REGENTE FEIJO  871,VILA REGENTE FEIJO,-23.5580882,-46.5700756,"(4, 33)"
29,POLICIA MILITAR,BATALHAO DA POLICIA,AV RIO BRANCO  1289,CAMPOS ELISEOS,-23.5330203,-46.64523130000001,"(4, 32)"
30,POLICIA MILITAR,BATALHAO DA POLICIA,AV RIO DAS PEDRAS  2377,JD ARICANDUVA,-23.5737278,-46.5050004,"(4, 34)"
31,POLICIA MILITAR,BATALHAO DA POLICIA,AV SALVADOR GIANETTI 386,GUAIANASES,-23.5426786,-46.4187947,"(4, 35)"
32,POLICIA MILITAR,COMANDO DE POLICIAMENTO,AV SAPOPEMBA 12370,FAZENDA DA JUTA,-23.612849,-46.48817709999999,"(3, 34)"
33,POLICIA MILITAR,BATALHAO DA POLICIA,AV SAPOPEMBA 30505,JD ALTO ALEGRE,-23.6193482,-46.4239622,"(3, 35)"
34,POLICIA MILITAR,BATALHAO DA POLICIA,AV TENENTE JULIO PRADO NEVES 1111,VILA ALBERTINA,-23.4638162,-46.6270961,"(5, 32)"
35,POLICIA MILITAR,BATALHAO DA POLICIA,AV TIRADENTES 440,LUZ,-23.5321943,-46.6304135,"(4, 32)"
36,POLICIA MILITAR,BATALHAO DA POLICIA,EST DE ITAPECERICA  5650,JD VISTA LINDA,-23.6630237,-46.7816559,"(3, 31)"
37,POLICIA MILITAR,BATALHAO DA POLICIA,EST ITAQUERA GUAIANAZES 80,ITAQUERA,-23.5308886,-46.44342930000001,"(4, 34)"
38,POLICIA MILITAR,CORREGEDORIA,R ALFREDO MAIA  58,LUZ,-23.5312849,-46.6294523,"(4, 32)"
39,POLICIA MILITAR,BATALHAO DA POLICIA,R ALFREDO PIRAGIBE  300,VILA MADALENA,-23.548162,-46.6981766,"(4, 31)"
40,POLICIA MILITAR,BATALHAO DA POLICIA,R AMAMBAI 1181,VILA MARIA,-23.5177596,-46.5847139,"(4, 33)"
41,POLICIA MILITAR,BATALHAO DA POLICIA,R AMAMBAI 9,VILA MARIA,-23.5270446,-46.59250670000001,"(4, 33)"
42,POLICIA MILITAR,BATALHAO DA POLICIA,R ANTONIO DA COSTA BARBOSA 100,VILA ANDRADE,-23.6324395,-46.7284459,"(3, 31)"
43,POLICIA MILITAR,BATALHAO DA POLICIA,R ARMANDO DIAS 75,VILA DIVA,-23.5733678,-46.5574761,"(4, 33)"
44,POLICIA MILITAR,BATALHAO DA POLICIA,R AUGUSTIN LUBERTI 1100,FAZENDA DA JUTA,-23.6223052,-46.4878966,"(3, 34)"
45,POLICIA MILITAR,BATALHAO DA POLICIA,R AZURITA  98,CANINDE,-23.5227494,-46.6176167,"(4, 32)"
46,POLICIA MILITAR,BATALHAO DA POLICIA,R BARROS CASSAL  348,ITAQUERA,-23.5409958,-46.4536792,"(4, 34)"
47,POLICIA MILITAR,BATALHAO DA POLICIA,R BARROSO NETO 60,BUTANTA,-23.5715545,-46.7227717,"(4, 31)"
48,POLICIA MILITAR,BATALHAO DA POLICIA,R BUCUITUBA  952,VILA MARGARIDA,-23.5784104,-46.5478337,"(4, 33)"
49,POLICIA MILITAR,BATALHAO DA POLICIA,R CAETANO PIMENTEL DO VABO 78,JD AVELINO,-23.5895802,-46.5681933,"(3, 33)"
50,POLICIA MILITAR,BATALHAO DA POLICIA,R CEL EMIDIO PIEDADE  485,PARI,-23.5292173,-46.6117538,"(4, 32)"
51,POLICIA MILITAR,BATALHAO DA POLICIA,R CONNO MATEO 17,PARQUE CONTINENTAL,-23.5384810448834,-46.7568789126241,"(4, 31)"
52,POLICIA MILITAR,BATALHAO DA POLICIA,R CORDAO DE SAO FRANCISCO 875,ITAIM PAULISTA,-23.4936556,-46.4030005,"(5, 35)"
53,POLICIA MILITAR,BATALHAO DA POLICIA,R DA ABOLICAO 349,BELA VISTA,-23.3243913,-46.2355142,"(6, 37)"
54,POLICIA MILITAR,BATALHAO DA POLICIA,R DAS ROSAS 32,VARGEM GRANDE,-23.608867,-46.638066,"(3, 32)"
55,POLICIA MILITAR,BATALHAO DA POLICIA,R DOM LUIS LASANHA 534,IPIRANGA,-23.5909007,-46.6087102,"(3, 32)"
56,POLICIA MILITAR,BATALHAO DA POLICIA,R DR GABRIEL DOS SANTOS  81,SANTA CECILIA,-23.5334247,-46.6579578,"(4, 32)"
57,POLICIA MILITAR,BATALHAO DA POLICIA,R DR PELAGIO MARQUES  117,VILA MATILDE,-23.5367643,-46.5267303,"(4, 33)"
58,POLICIA MILITAR,COMANDO DE POLICIAMENTO,R DR RUBENS GOMES BUENO 231,VARZEA DE BAIXO,-23.6430749,-46.7196937,"(3, 31)"
59,POLICIA MILITAR,ASSESSORIA DE POLICIA,R DR VILA NOVA 285,VILA BUARQUE,-23.5463293,-46.6502105,"(4, 32)"
60,POLICIA MILITAR,BATALHAO DA POLICIA,R DR. PELAGIO MARQUES 177,VILA MATILDE,-23.537227,-46.5267075,"(4, 33)"
61,POLICIA MILITAR,BATALHAO DA POLICIA,R ERNESTO GOULD 317,CIDADE TIRADENTES,-23.5885195,-46.40706369999999,"(3, 35)"
62,POLICIA MILITAR,BATALHAO DA POLICIA,R FLORENCIO SANCHES 185,JD GUAIRACA,-23.5997842,-46.5350923,"(3, 33)"
63,POLICIA MILITAR,BATALHAO DA POLICIA,R FRANCISCO BAUTISTA  471,JD SANTA EMILIA,-23.6418377,-46.5960628,"(3, 33)"
64,POLICIA MILITAR,BATALHAO DA POLICIA,R HEITOR DINIZ CAMPELO 215,VILA LONDRINA,-23.5123119,-46.5347522,"(4, 33)"
65,POLICIA MILITAR,BATALHAO DA POLICIA,R ITAPICURU 80,PERDIZES,-23.5369322,-46.6653372,"(4, 32)"
66,POLICIA MILITAR,ASSESSORIA DE POLICIA,R JACAREI  100,BELA VISTA,-23.5512124,-46.6423589,"(4, 32)"
67,POLICIA MILITAR,BATALHAO DA POLICIA,R JESUINO ARRUDA 464,ITAIM BIBI,-23.5818867,-46.6747214,"(4, 32)"
68,POLICIA MILITAR,BATALHAO DA POLICIA,R JOAPITANGA 301,VILA CAMPANELA,-23.538995,-46.4659351,"(4, 34)"
69,POLICIA MILITAR,REGIMENTO DE POLICIA MONTADA,R JORGE MIRANDA  238,LUZ,-23.5317571,-46.6297286,"(4, 32)"
70,POLICIA MILITAR,COMANDO DE POLICIAMENTO,R JORGE MIRANDA 789,LUZ,-23.5322934,-46.6266633,"(4, 32)"
71,POLICIA MILITAR,COMANDO GERAL,R LIBERO BADARO 39,CENTRO,-23.5490933,-46.6377296,"(4, 32)"
72,POLICIA MILITAR,BATALHAO DA POLICIA,R LINO DE ALMEIDA PIRES  578,VILA GUARANI,-23.6433771,-46.63457330000001,"(3, 32)"
73,POLICIA MILITAR,BATALHAO DA POLICIA,R LUIZ BARBALHO BEZERRA 600,SANTA BARBARA,-23.6078081,-46.4600407,"(3, 34)"
74,POLICIA MILITAR,BATALHAO DA POLICIA,R MAESTRO ELIAS LOBO 127,JD PAULISTA,-23.5727656,-46.6636815,"(4, 32)"
75,POLICIA MILITAR,BATALHAO DA POLICIA,R MAJOR BASILIO 774,AGUA RASA,-23.5575589,-46.57882,"(4, 33)"
76,POLICIA MILITAR,BATALHAO DA POLICIA,R MANOEL SARMENTO 247,JD NOSSA SRA DO CARMO,-23.5695218,-46.4719092,"(4, 34)"
77,POLICIA MILITAR,BATALHAO DA POLICIA,R OTTO DE ALENCAR 230,CAMBUCI,-23.5594342,-46.6246996,"(4, 32)"
78,POLICIA MILITAR,BATALHAO DA POLICIA,R PASSO DA PATRIA 1601,BELA ALIANCA,-23.523875,-46.7322794,"(4, 31)"
79,POLICIA MILITAR,BATALHAO DA POLICIA,R PASTOR JERONIMO GRANERO GARCIA 11,JD ALVORADA,-23.6651615,-46.7836077,"(3, 31)"
80,POLICIA MILITAR,BATALHAO DA POLICIA,R PAULINO PACHECO DE MELO 3,JD ROBRU,-23.5240258,-46.4139357,"(4, 35)"
81,POLICIA MILITAR,BATALHAO DA POLICIA,R PERIBEBUI 101,ALTO DA LAPA,-23.5272911,-46.72135309999999,"(4, 31)"
82,POLICIA MILITAR,BATALHAO DA POLICIA,R PROF ANTONIO PRUDENTE  48,LIBERDADE,-23.564916,-46.6389557,"(4, 32)"
83,POLICIA MILITAR,BATALHAO DA POLICIA,R RAFAEL IORIO 160,CAMPO BELO,-23.6268403,-46.6621173,"(3, 32)"
84,POLICIA MILITAR,BATALHAO DA POLICIA,R REPUBLICA DO IRAQUE 1119,CAMPO BELO,-23.6246057,-46.6716469,"(3, 32)"
85,POLICIA MILITAR,BATALHAO DA POLICIA,R RIBEIRO DE LIMA 140,LUZ,-23.531614,-46.6338199,"(4, 32)"
86,POLICIA MILITAR,BATALHAO DA POLICIA,R RIO BONITO  950,BRAS,-23.5297112,-46.6123533,"(4, 32)"
87,POLICIA MILITAR,BATALHAO DA POLICIA,R SAIGON  201,VILA FORMOSA,-23.5687897,-46.5447188,"(4, 33)"
88,POLICIA MILITAR,CORREGEDORIA,R SANTA LEOCADIA 130,VILA I MAZZEI,-23.4949233,-46.6094398,"(5, 32)"
89,POLICIA MILITAR,BATALHAO DA POLICIA,R SARGENTO ADVINCOLA 197,JD SANTA INES,-23.4691788,-46.6282851,"(5, 32)"
90,POLICIA MILITAR,BATALHAO DA POLICIA,R SENA MADUREIRA 980,VILA CLEMENTINO,-23.5935742,-46.6453845,"(3, 32)"
91,POLICIA MILITAR,BATALHAO DA POLICIA,R VALDOMIRO DE LIMA  286,JABAQUARA,-23.6395266,-46.64369300000001,"(3, 32)"
92,POLICIA MILITAR,COMANDO DE POLICIAMENTO,R VERGUEIRO 363,LIBERDADE,-23.5652613,-46.6392295,"(4, 32)"
93,POLICIA MILITAR,BATALHAO DA POLICIA,R VESPASIANO 807,VILA ROMANA,-23.5299477,-46.6953427,"(4, 32)"
94,POLICIA MILITAR,BATALHAO DA POLICIA,R VICENTE AVELAR 100,JOSE BONIFACIO,-23.5452302,-46.4361824,"(4, 34)"
95,POLICIA MILITAR,BATALHAO DA POLICIA,R VILA OLIMPICA MARIO COVAS 21,PARQUE IPE,-23.594794,-46.8014681,"(3, 30)"
96,POLICIA MILITAR,BATALHAO DA POLICIA,R VILELA 307,TATUAPE,-23.5370472,-46.5666114,"(4, 33)"
97,POLICIA MILITAR,BATALHAO DA POLICIA,R VISCONDE DE PARNAIBA 2334,BRAS,-23.544214,-46.60433399999999,"(4, 33)"
98,POLICIA MILITAR,BATALHAO DA POLICIA,R ZURITA 98,CANINDE,-23.5227494,-46.6176167,"(4, 32)"
99,POLICIA CIVIL,DELEGACIA DE POLICIA,AL GLETE 827,CAMPOS ELISEOS,-23.5366674,-46.6489398,"(4, 32)"
100,POLICIA CIVIL,DELEGACIA DE POLICIA,AL PRIMEIRO SARGENTO OSMAR CORTEZ CLARO 52,PARQUE NOVO MUNDO,-23.4996876,-46.569125,"(4, 33)"
101,POLICIA CIVIL,DELEGACIA DE POLICIA,AV AIRTON PRETINI  69,JD A PENHA,-23.5291254,-46.5544559,"(4, 33)"
102,POLICIA CIVIL,DELEGACIA DE POLICIA,AV ALTANTICA 1171,SOCORRO,-23.6763287,-46.7120569,"(3, 31)"
103,POLICIA CIVIL,DELEGACIA DE POLICIA,AV ANGELO CRISTIANINI 467,C JULIA,-23.6851295,-46.6372457,"(2, 32)"
104,POLICIA CIVIL,DELEGACIA DE POLICIA,AV ARQUITETO VILA NOVA ARTIGAS 720,TEOTONIO VILELA,-23.6082362,-46.5008084,"(3, 34)"
105,POLICIA CIVIL,DELEGACIA DE POLICIA,AV ATLANTICA 1171,SOCORRO,-23.6763287,-46.7120569,"(3, 31)"
106,POLICIA CIVIL,DELEGACIA DE POLICIA,AV CASA VERDE 677,CASA VERDE,-23.5005049,-46.6491495,"(4, 32)"
107,POLICIA CIVIL,DELEGACIA DE POLICIA,AV CELSO GARCIA 2875,TATUAPE,-23.5352219,-46.5846386,"(4, 33)"
108,POLICIA CIVIL,DELEGACIA DE POLICIA,AV CONSELHEIRO CARRAO 2580,VILA CARRAO,-23.5491687,-46.53722570000001,"(4, 33)"
109,POLICIA CIVIL,DELEGACIA DE POLICIA,AV CORIFEU DE AZEVEDO MARQUES 4300,VILA LAGEADO,-23.5587714,-46.7467711,"(4, 31)"
110,POLICIA CIVIL,DELEGACIA DE POLICIA,AV DEPUTADO EMILIO CARLOS 1251,LIMAO,-23.4943279,-46.6778839,"(5, 32)"
111,POLICIA CIVIL,DELEGACIA DE POLICIA,AV DR GASTAO VIDIGAL 307,JD PAULISTANO,-23.5242193,-46.7406318,"(4, 31)"
112,POLICIA CIVIL,DELEGACIA DE POLICIA,AV ELISIO TEIXEIRA LEITE 7461,SIT MRO GRANDE,-23.4457366,-46.71685979999999,"(5, 31)"
113,POLICIA CIVIL,DELEGACIA DE POLICIA,AV ENGENHEIRO GEORGE CORBISIER 322,JABAQUARA,-23.639392,-46.6433401,"(3, 32)"
114,POLICIA CIVIL,DELEGACIA DE POLICIA,AV ENGENHEIRO LUIZ CARLOS BERRINI 900,BROOKLIN,-23.6043439,-46.692907,"(3, 32)"
115,POLICIA CIVIL,DIVISAO DE CRIMES CONTRA A FAZENDA,AV INDIANOPOLIS 3303,INDIANOPOLIS,-23.6265608,-46.6445595,"(3, 32)"
116,POLICIA CIVIL,DELEGACIA DE POLICIA,AV ITABERABA 731,NOSSA SRA  O,-23.4947594,-46.6977433,"(5, 32)"
117,POLICIA CIVIL,DELEGACIA DE POLICIA,AV MARCONDES DE BRITO 1416,CHACARA SEIS DE OUTUBRO,-23.5370451,-46.5266046,"(4, 33)"
118,POLICIA CIVIL,DELEGACIA DE POLICIA,AV MENOTTI LAUDISIO 286,JD CIDADE PIRITUBA,-23.4829978,-46.7279263,"(5, 31)"
119,POLICIA CIVIL,DELEGACIA DE POLICIA,AV NAGIB FARAH MALUF 209,CJ RUA J BONIFACIO,-23.5519944,-46.4370144,"(4, 34)"
120,POLICIA CIVIL,DELEGACIA DE POLICIA,AV ONZE DE JUNHO 89,VILA CLEMENTINO,-23.6018642,-46.637764,"(3, 32)"
121,POLICIA CIVIL,DELEGACIA DE POLICIA,AV ORATORIO 1588,VILA INDEPENDENCIA,-23.5898428,-46.55329099999999,"(3, 33)"
122,POLICIA CIVIL,DELEGACIA DE POLICIA,AV OSVALDO PUCCI 180,JD NOSSA SRA CARMO,-23.5667588,-46.4661214,"(4, 34)"
123,POLICIA CIVIL,DELEGACIA DE POLICIA,AV OSVALDO VALLE CORDEIRO 190,JD BRASILIA,-23.5540299,-46.4922378,"(4, 34)"
124,POLICIA CIVIL,DELEGACIA DE POLICIA,AV PADRE ARLINDO VIEIRA 50,VILA VERMELHA,-23.6229114,-46.6019075,"(3, 33)"
125,POLICIA CIVIL,DELEGACIA DE POLICIA,AV PADRE ESTANISLAU DE CAMPOS 750,CJ H P M NOBREGA,-23.5437622,-46.4814419,"(4, 34)"
126,POLICIA CIVIL,DELEGACIA DE POLICIA,AV PARADA PINTO 2387,VILA NOVA CACHOEIRINHA,-23.4695114,-46.6483016,"(5, 32)"
127,POLICIA CIVIL,DELEGACIA DE POLICIA,AV PAULO LINCOLN DO VALE POTIM 744,JACANA,-23.4586446,-46.5853353,"(5, 33)"
128,POLICIA CIVIL,DELEGACIA DE POLICIA,AV PROF FRANCISCO MORATO 2971,VILA SONIA,-23.5882146,-46.72672619999999,"(3, 31)"
129,POLICIA CIVIL,DELEGACIA DE POLICIA,AV RAGUEB CHOHFI  870,JD 3 MARIAS,-23.6054835,-46.4707403,"(3, 34)"
130,POLICIA CIVIL,DELEGACIA DE POLICIA,AV ROBERT KENNEDY 1171,SOCORRO,-23.7007325,-46.5768896,"(2, 33)"
131,POLICIA CIVIL,DELEGACIA DE POLICIA,AV SAO JOAO 1247,CENTRO,-23.755333,-46.3957433,"(2, 35)"
132,POLICIA CIVIL,DELEGACIA DE POLICIA,AV SAO MIGUEL 3551,VILA CONSTANCIA,-23.5099048,-46.4986202,"(4, 34)"
133,POLICIA CIVIL,DELEGACIA DE POLICIA,AV SAPOPEMBA 3259,VILA R FEIJO,-23.5737271,-46.5576479,"(4, 33)"
134,POLICIA CIVIL,DELEGACIA DE POLICIA,AV ZAKI NARCHI 152,CARANDIRU,-23.5120326,-46.6228369,"(4, 32)"
135,POLICIA CIVIL,DELEGACIA DE POLICIA,EST DE ITAPECERICA 5864,JD V LINDA,-23.6647883,-46.7826795,"(3, 31)"
136,POLICIA CIVIL,DELEGACIA DE POLICIA,R ALDEIA DE SANTO INACIO  696,PARQUE SAO RAFAEL,-23.6235926,-46.4702164,"(3, 34)"
137,POLICIA CIVIL,DELEGACIA DE POLICIA,R AMERICO GOMES DA COSTA 305,VILA AMERICANA,-23.4963086,-46.4412205,"(5, 34)"
138,POLICIA CIVIL,DELEGACIA DE POLICIA,R ANGELO BERTINI 82,JD  CELESTE,-23.6565234,-46.6138129,"(3, 32)"
139,POLICIA CIVIL,DELEGACIA DE POLICIA,R ANIBAL DOS ANJOS CARVALHO 87,CIDADE DUTRA,-23.7121523,-46.6957236,"(2, 32)"
140,POLICIA CIVIL,DELEGACIA DE POLICIA,R ANTONIO CAMARDO 69,VILA  G CARDIM,-23.5499136,-46.5677709,"(4, 33)"
141,POLICIA CIVIL,DELEGACIA DE POLICIA,R ANTONIO GIL 1349,JD  ALZIRA,-23.6566576,-46.66928919999999,"(3, 32)"
142,POLICIA CIVIL,DELEGACIA DE POLICIA,R ANTURIOS 362,JD  TEXTIL,-23.5624913,-46.5452257,"(4, 33)"
143,POLICIA CIVIL,DELEGACIA DE POLICIA,R AURORA 322,SANTA  EFIGENIA,-23.539323,-46.6397243,"(4, 32)"
144,POLICIA CIVIL,GRUPO OPERACOES ESPECIAIS DECAP - GOE,R BARAO DO TRIUNFO 1179,BROOKLIN PAULISTA,-23.6189571,-46.6785092,"(3, 32)"
145,POLICIA CIVIL,DELEGACIA DE POLICIA,R BARROSO NETO 46,VILA  INDIANA,-23.5718195,-46.7225826,"(4, 31)"
146,POLICIA CIVIL,DELEGACIA DE POLICIA,R BRIGADEIRO TOBIAS  527,SANTA EFIGENIA,-23.5384727,-46.63501309999999,"(4, 32)"
147,POLICIA CIVIL,DELEGACIA DE POLICIA,R CAMARES 94,CARANDIRU,-23.503388,-46.6130193,"(4, 32)"
148,POLICIA CIVIL,DELEGACIA DE POLICIA,R CAMILO 317,VILA ROMANA,-23.5295435,-46.6951429,"(4, 32)"
149,POLICIA CIVIL,DELEGACIA DE POLICIA,R CAROLINA MICHAELIS 370,JD IMBUIAS,-23.7297691,-46.709445,"(2, 31)"
150,POLICIA CIVIL,DELEGACIA DE POLICIA,R COMANDANTE TAYLOR 1180,IPIRANGA,-23.6037674,-46.59495829999999,"(3, 33)"
151,POLICIA CIVIL,DELEGACIA DE POLICIA,R DA CANTAREIRA 390,CENTRO,-23.5408655,-46.62949,"(4, 32)"
152,POLICIA CIVIL,CORREGEDORIA,R DA CONSOLACAO 2333,CONSOLACAO,-23.5552066,-46.661745,"(4, 32)"
153,POLICIA CIVIL,DELEGACIA DE POLICIA,R DA CONSOLACAO 247,REPUBLICA,-23.5479671,-46.64384339999999,"(4, 32)"
154,POLICIA CIVIL,DELEGACIA DE POLICIA,R DA ESPERANCA 797,VILA MEDEIROS,-23.4832656,-46.5899297,"(5, 33)"
155,POLICIA CIVIL,DELEGACIA DE POLICIA,R DA GLORIA  410,LIBERDADE,-23.5569803,-46.6343707,"(4, 32)"
156,POLICIA CIVIL,DELEGACIA DE POLICIA,R DEMOSTENES 407,CPO BELO,-23.6152298,-46.67501009999999,"(3, 32)"
157,POLICIA CIVIL,DELEGACIA DE POLICIA,R DEPUTADO LACERDA FRANCO 372,PINHEIROS,-23.5617968,-46.6912197,"(4, 32)"
158,POLICIA CIVIL,DELEGACIA DE POLICIA,R DO ORATORIO 2220,ALTO DA MOOCA,-23.5689051,-46.5845589,"(4, 33)"
159,POLICIA CIVIL,DELEGACIA DE POLICIA,R DOM LUIZ LAZAGNA 534,IPIRANGA,-23.5909007,-46.6087102,"(3, 32)"
160,POLICIA CIVIL,DELEGACIA DE POLICIA,R DOMINGOS SIMOES 21,PRQ B MORUMBI,-23.6084649,-46.7360457,"(3, 31)"
161,POLICIA CIVIL,DELEGACIA DE POLICIA,R DOS CAMARES  94,CARANDIRU,-23.503388,-46.6130193,"(4, 32)"
162,POLICIA CIVIL,DELEGACIA DE POLICIA,R DR BITTENCOURT RODRIGUES 200,CENTRO,-23.5479929,-46.6314632,"(4, 32)"
163,POLICIA CIVIL,DELEGACIA DE POLICIA,R DR CORINTO BALDOINO COSTA 400,PARQUE SAO JORGE,-23.5363838,-46.5633524,"(4, 33)"
164,POLICIA CIVIL,DELEGACIA DE POLICIA,R DR JUVENAL HUDSON FERREIRA  141,JD MIRNA,-23.7706354,-46.6971263,"(1, 32)"
165,POLICIA CIVIL,DELEGACIA DE POLICIA,R DR RENATO PAES DE BARROS 340,ITAIM BIBI,-23.5818477,-46.6745046,"(4, 32)"
166,POLICIA CIVIL,GARAGEM,R DR TOMAZ CARVALHAL 1030,PARAISO,-23.579562,-46.650286,"(4, 32)"
167,POLICIA CIVIL,DELEGACIA DE POLICIA,R DRA ESMERALDA MENDES POLICENE 264,JD AVELINO,-23.5938526,-46.5672439,"(3, 33)"
168,POLICIA CIVIL,DELEGACIA DE POLICIA,R DRIADES 50,VILA JACUI,-23.5092849,-46.4463252,"(4, 34)"
169,POLICIA CIVIL,DELEGACIA DE POLICIA,R ESTADOS UNIDOS 1608,JD AMERICA,-23.5660725,-46.6692885,"(4, 32)"
170,POLICIA CIVIL,DEPARTAMENTO DE POLICIA JUDICIARIA,R FERREIRA DE ARAUJO 653,PINHEIROS,-23.5634443,-46.6976974,"(4, 32)"
171,POLICIA CIVIL,DELEGACIA DE POLICIA,R FIORELLI PECCICACCO 320,VILA MALVINA,-23.4040925,-46.7380839,"(6, 31)"
172,POLICIA CIVIL,DELEGACIA DE POLICIA,R FRANCISCO JOSE VIANA 175,CIDADE TIRADENTES,-23.6052239,-46.4012097,"(3, 35)"
173,POLICIA CIVIL,DELEGACIA DE POLICIA,R HERMINIO LEMOS 70,CAMBUCI,-23.567624,-46.6235614,"(4, 32)"
174,POLICIA CIVIL,DELEGACIA DE POLICIA,R HUMBERTO RAVELLO  9,PARELHEIROS,-23.8248915,-46.7343614,"(1, 31)"
175,POLICIA CIVIL,DELEGACIA DE POLICIA,R JACARATINGA 201,VILA PIRAJUSSARA,-23.6329013,-46.77042369999999,"(3, 31)"
176,POLICIA CIVIL,DELEGACIA DE POLICIA,R JARAGUA 383,BOM RETIRO,-23.523067,-46.64425139999999,"(4, 32)"
177,POLICIA CIVIL,DELEGACIA DE POLICIA,R JOAO DA SILVA AGUIAR 850,LAGEADO,-23.5373553,-46.3976225,"(4, 35)"
178,POLICIA CIVIL,DELEGACIA DE POLICIA,R JOAQUIM DE OLIVEIRA FREITAS 1170,JD S ELIAS,-23.497318,-46.7457456,"(5, 31)"
179,POLICIA CIVIL,DELEGACIA DE POLICIA,R JOAQUIM FERREIRA DA ROCHA 403,BRASILANDIA,-23.4691612,-46.6897573,"(5, 32)"
180,POLICIA CIVIL,DELEGACIA DE POLICIA,R JOSE CARLOS SANTOS MARQUES  301,JD HERCULANO,-23.6929887,-46.7599783,"(2, 31)"
181,POLICIA CIVIL,DELEGACIA DE POLICIA,R JUVENTUS 350,ALTO DA MOOCA,-23.5704692,-46.5916434,"(4, 33)"
182,POLICIA CIVIL,ASSISTENCIA POLICIAL,R LIBERO BADARO 39,CENTRO,-23.5490933,-46.6377296,"(4, 32)"
183,POLICIA CIVIL,DELEGACIA DE POLICIA,R MARIA BENEDITA RODRIGUES 200,PRQ S ANTONIO,-23.6628353,-46.75538419999999,"(3, 31)"
184,POLICIA CIVIL,DELEGACIA DE POLICIA,R MARIO ANCONA 530,PRQ IPE,-23.5973003,-46.7960428,"(3, 30)"
185,POLICIA CIVIL,DELEGACIA DE POLICIA,R MARQUES DE PARANAGUA 246,CONSOLACAO,-23.5506416,-46.6500727,"(4, 32)"
186,POLICIA CIVIL,ASSISTENCIA POLICIAL,R PADRE DE CARVALHO 396,PINHEIROS,-23.5633756,-46.6972477,"(4, 32)"
187,POLICIA CIVIL,DELEGACIA DE POLICIA,R PADRE JOSE DE ANCHIETA 138,S AMARO,-23.6468944,-46.70744670000001,"(3, 31)"
188,POLICIA CIVIL,DELEGACIA DE POLICIA,R PROF ANTONIO PRUDENTE 160,LIBERDADE,-23.5657615,-46.638262,"(4, 32)"
189,POLICIA CIVIL,DELEGACIA DE POLICIA,R RODOLFO MIRANDA 636,BOM RETIRO,-23.5238498,-46.6372318,"(4, 32)"
190,POLICIA CIVIL,DELEGACIA DE POLICIA,R RUI PIROZZELLI  250,JD BELEM,-23.4898406,-46.4816704,"(5, 34)"
191,POLICIA CIVIL,DELEGACIA DE POLICIA,R SABBADO D'ANGELO 64,ITAQUERA,-23.5342696,-46.4518314,"(4, 34)"
192,POLICIA CIVIL,DELEGACIA DE POLICIA,R SALVADOR GIANETTI 386,GUAIANASES,-23.5426786,-46.4187947,"(4, 35)"
193,POLICIA CIVIL,DELEGACIA DE POLICIA,R SAO BENTO 380,CENTRO,-23.5459565,-46.6350038,"(4, 32)"
194,POLICIA CIVIL,DELEGACIA DE POLICIA,R SAO ZEFERINO 34,JD FRANCA,-23.478257,-46.6207276,"(5, 32)"
195,POLICIA CIVIL,DELEGACIA DE POLICIA,R SAPUCAIA 206,BRAS,-23.5483289,-46.5937954,"(4, 33)"
196,POLICIA CIVIL,DELEGACIA DE POLICIA,R SARGENTO MANOEL BARBOSA DA SILVA 115,JD ANHANGUERA,-23.6619864,-46.6870504,"(3, 32)"
197,POLICIA CIVIL,CENTRAL DE CARROS AUXILIARES,R SERRA DE BOTUCATU 1577,VILA G CARDIM,-23.5414624,-46.5567023,"(4, 33)"
198,POLICIA CIVIL,DELEGACIA DE POLICIA,R SEVERINO JOSE FERNANDES 1900,JD ROBRU,-23.5202068,-46.41149069999999,"(4, 35)"
199,POLICIA CIVIL,DELEGACIA DE POLICIA,R SONHO GAUCHO 638,JD SAO NICOLAU,-23.5240747,-46.4754671,"(4, 34)"
200,POLICIA CIVIL,DELEGACIA DE POLICIA,R TIBURCIO DE SOUZA 860,ITAIM,-23.5046049,-46.39673579999999,"(4, 35)"
201,POLICIA CIVIL,DELEGACIA DE POLICIA,R TUTOIA 921,VILA MARIANA,-23.5791393,-46.6508564,"(4, 32)"
202,POLICIA CIVIL,DEPARTAMENTO DE ADMINISTRACAO,R VENCESLAU BRAS 167,CENTRO,-23.5492095,-46.6315812,"(4, 32)"
203,POLICIA CIVIL,DEPARTAMENTO DE ADMINISTRACAO,R VERGUEIRO 7072,VILA F PINTO,-23.6081087,-46.6141347,"(3, 32)"
204,POLICIA CIVIL,DELEGACIA DE POLICIA,R VISTOSA DA MADRE DE DEUS 120,JD NOEMIA,-23.4875889,-46.4101492,"(5, 35)"
205,POLICIA CIVIL,DELEGACIA DE POLICIA,R. OTAVIO ALVES DUNDAS 390,VILA EMA,-23.5987209,-46.5333003,"(3, 33)"
206,POLICIA CIVIL,DELEGACIA DE POLICIA,ROD DOS IMIGRANTES KM 11,VILA GUARANI,-23.6535178376041,-46.6333077065068,"(3, 32)"
207,POLICIA CIVIL,DELEGACIA DE POLICIA,ZAKI NARCHIAV 152,CARANDIRU,-23.5120326,-46.6228369,"(4, 32)"
208,UNIDADE GUARDA CIVIL METROPOLITANA,INSPETORIA REGIONAL,AV DO ESTADO 680,BELA VISTA,-23.5226768,-46.63429989999999,"(4, 32)"
209,UNIDADE GUARDA CIVIL METROPOLITANA,INSPETORIA REGIONAL,AV DOS TEXTEIS 1331,SANTA ETELVINA,-23.5925368,-46.4030178,"(3, 35)"
210,UNIDADE GUARDA CIVIL METROPOLITANA,INSPETORIA REGIONAL,AV PIRES DO RIO 1349,S. M. PAULISTA,-23.5085585,-46.4432011,"(4, 34)"
211,UNIDADE GUARDA CIVIL METROPOLITANA,COMANDO OPERACIONAL,AV PROFESSOR FREDERICO HERMAN JUNIOR 653,PINHEIROS,-23.5626267,-46.7033444,"(4, 31)"
212,UNIDADE GUARDA CIVIL METROPOLITANA,INSPETORIA REGIONAL,AV PROF JOAO BATISTA CONTI 285,CONJUNTO JOSE BONIFACIO,-23.5519324,-46.4329617,"(4, 34)"
213,UNIDADE GUARDA CIVIL METROPOLITANA,INSPETORIA REGIONAL,AV RAIMUNDO PEREIRA DE MAGALHAES 5093,PIRITUBA,-23.4854013,-46.72473170000001,"(5, 31)"
214,UNIDADE GUARDA CIVIL METROPOLITANA,INSPETORIA REGIONAL,AV ROBERT KENNEDY 2450,JD. IPANEMA,-23.7125247,-46.5744665,"(2, 33)"
215,UNIDADE GUARDA CIVIL METROPOLITANA,INSPETORIA REGIONAL,AV SADAMU INOUE 6291,PARELHEIROS,-23.8231198,-46.7349866,"(1, 31)"
216,UNIDADE GUARDA CIVIL METROPOLITANA,INSPETORIA REGIONAL,AV SANTOS DUMONT 767,BOM RETIRO,-23.522018,-46.63078400000001,"(4, 32)"
217,UNIDADE GUARDA CIVIL METROPOLITANA,INSPETORIA REGIONAL,AVENIDA MAL TITO 3012,ITAIM PAULISTA,-23.4946203,-46.4171384,"(5, 35)"
218,UNIDADE GUARDA CIVIL METROPOLITANA,INSPETORIA REGIONAL,EST VELHA DE MOGI DAS CRUZES 1860,BURGO PAULISTA,-23.5170005,-46.4825362,"(4, 34)"
219,UNIDADE GUARDA CIVIL METROPOLITANA,INSPETORIA REGIONAL,PC JOAO PISANI 449,BUTANTA,-23.5757342,-46.7225057,"(4, 31)"
220,UNIDADE GUARDA CIVIL METROPOLITANA,INSPETORIA REGIONAL,PC TANQUE DO ZUNEGA 31,JD ROSELI,-23.5970034,-46.4362692,"(3, 34)"
221,UNIDADE GUARDA CIVIL METROPOLITANA,INSPETORIA REGIONAL,R ADAUTO BEZERRA DELGADO 210,JD JOAMAR,-23.4492582,-46.5964593,"(5, 33)"
222,UNIDADE GUARDA CIVIL METROPOLITANA,INSPETORIA REGIONAL,R BRENO FERRAZ DO AMARAL 415,IPIRANGA,-23.5974125,-46.6214813,"(3, 32)"
223,UNIDADE GUARDA CIVIL METROPOLITANA,INSPETORIA REGIONAL,R CAPITAO MACEDO 553,VILA MARIANA,-23.59298,-46.6452813,"(3, 32)"
224,UNIDADE GUARDA CIVIL METROPOLITANA,COMANDO OPERACIONAL,R CASSIANO DOS SANTOS 499,JD CLIPPER,-23.7208213,-46.7016081,"(2, 31)"
225,UNIDADE GUARDA CIVIL METROPOLITANA,INSPETORIA REGIONAL,R DARWIN 221,SANTO AMARO,-23.6548648,-46.6997916,"(3, 31)"
226,UNIDADE GUARDA CIVIL METROPOLITANA,INSPETORIA REGIONAL,R DAS PROVINCIAS 218,VILA MARIETA,-23.5183465,-46.5210748,"(4, 33)"
227,UNIDADE GUARDA CIVIL METROPOLITANA,INSPETORIA REGIONAL,R DR FREDERICO HERMANN JUNIOR 653,PINHEIROS,-23.5626267,-46.7033444,"(4, 31)"
228,UNIDADE GUARDA CIVIL METROPOLITANA,INSPETORIA REGIONAL,R FERNANDES PALERO 301,COHAB JK GUAIANAZES,-23.5668175,-46.4008062,"(4, 35)"
229,UNIDADE GUARDA CIVIL METROPOLITANA,COMANDO GERAL,R GAL COUTO DE MAGALHAES 444,NOVA LUZ,-23.5355511,-46.6367839,"(4, 32)"
230,UNIDADE GUARDA CIVIL METROPOLITANA,INSPETORIA REGIONAL,R IAMACARU 131,JD PLANALTO,-23.6102066,-46.5129953,"(3, 34)"
231,UNIDADE GUARDA CIVIL METROPOLITANA,INSPETORIA REGIONAL,R ILIDIO DE FIGUEIREDO 0492,PERUS,-23.4064493,-46.7540168,"(6, 31)"
232,UNIDADE GUARDA CIVIL METROPOLITANA,INSPETORIA REGIONAL,R JOAO LUIZ CALHEIROS 40,BRASILANDIA,-23.4736393,-46.6889131,"(5, 32)"
233,UNIDADE GUARDA CIVIL METROPOLITANA,INSPETORIA REGIONAL,R LUSSANVIRA 178,VILA GUARANI,-23.6406001,-46.6380493,"(3, 32)"
234,UNIDADE GUARDA CIVIL METROPOLITANA,INSPETORIA REGIONAL,R MAJOR PALADINO 180,VILA LEOPOLDINA,-23.522838,-46.7393302,"(4, 31)"
235,UNIDADE GUARDA CIVIL METROPOLITANA,INSPETORIA REGIONAL,R MANOEL JOSE PEREIRA 300,JD GISMAR,-23.6662678,-46.7684746,"(3, 31)"
236,UNIDADE GUARDA CIVIL METROPOLITANA,INSPETORIA REGIONAL,R NEVES DE CARVALHO 780,BOM RETIRO,-23.5191088,-46.6498099,"(4, 32)"
237,UNIDADE GUARDA CIVIL METROPOLITANA,INSPETORIA REGIONAL,R NOVA TUPAROQUERA 2220,JD SAO LUIZ,-23.6658194,-46.7436747,"(3, 31)"
238,UNIDADE GUARDA CIVIL METROPOLITANA,INSPETORIA REGIONAL,R SEBASTIAO AFONSO 828,JD MIRIAM,-23.6800806,-46.6373682,"(2, 32)"
239,UNIDADE GUARDA CIVIL METROPOLITANA,INSPETORIA REGIONAL,R TAQUARI 635,MOOCA,-23.5501825,-46.5969024,"(4, 33)"
240,UNIDADE GUARDA CIVIL METROPOLITANA,INSPETORIA REGIONAL,R XIRO 266,CASA VERDE,-23.5074428,-46.6641539,"(4, 32)"
